{ "Category":[
  {
    "name":"Петропавловский собор",
    "lat":"52.42406253126344",
    "long":"31.01731114089489",
    "description":"",
    "image":"zdanie"
  },
  {
    "name":"Свято-Никольский монастырь",
    "lat":"52.440376289891226",
    "long":"30.985218510031697",
    "description":"",
    "image":"zdanie"
  },
  {
    "name":"Ильинская церковь",
    "lat":"52.4168113",
    "long":"31.0082595",
    "description":"",
    "image":"zdanie"
  },
  {
    "name":"ТЦ Секрет",
    "lat":"52.4237116",
    "long":"30.9978132",
    "description":"",
    "image":"zdanie"
  },
  {
    "name":"Нулевой километр",
    "lat":"52.4242403",
    "long":"31.0143024",
    "description":"",
    "image":"zdanie"
  }
]
}